[
  {
    "id": "poi-nyc-1",
    "name": "Empire State Building",
    "tags": ["history", "photography", "architecture", "observation"],
    "durationMinutes": 120,
    "latitude": 40.7484,
    "longitude": -73.9857
  },
  {
    "id": "poi-nyc-2",
    "name": "Top of the Rock - Rockefeller Center",
    "tags": ["photography", "observation", "skyline"],
    "durationMinutes": 90,
    "latitude": 40.7587,
    "longitude": -73.9787
  },
  {
    "id": "poi-nyc-3",
    "name": "Central Park",
    "tags": ["nature", "recreation", "photography", "walking"],
    "durationMinutes": 180,
    "latitude": 40.7829,
    "longitude": -73.9654
  },
  {
    "id": "poi-nyc-4",
    "name": "Statue of Liberty",
    "tags": ["history", "photography", "ferry", "landmark"],
    "durationMinutes": 240,
    "latitude": 40.6892,
    "longitude": -74.0445
  },
  {
    "id": "poi-nyc-5",
    "name": "Brooklyn Bridge",
    "tags": ["history", "photography", "walking", "architecture"],
    "durationMinutes": 90,
    "latitude": 40.7061,
    "longitude": -73.9969
  },
  {
    "id": "poi-nyc-6",
    "name": "Times Square",
    "tags": ["entertainment", "photography", "shopping", "broadway"],
    "durationMinutes": 60,
    "latitude": 40.758,
    "longitude": -73.9855
  },
  {
    "id": "poi-nyc-7",
    "name": "9/11 Memorial & Museum",
    "tags": ["history", "memorial", "museum", "culture"],
    "durationMinutes": 150,
    "latitude": 40.7115,
    "longitude": -74.0134
  },
  {
    "id": "poi-nyc-8",
    "name": "Chinatown",
    "tags": ["culture", "food", "shopping", "walking"],
    "durationMinutes": 120,
    "latitude": 40.7157,
    "longitude": -73.9977
  },
  {
    "id": "poi-nyc-9",
    "name": "Little Italy",
    "tags": ["culture", "food", "history", "walking"],
    "durationMinutes": 90,
    "latitude": 40.7193,
    "longitude": -73.9969
  }
]